,connection_code,address,network_region_id,network_region_name,network_region_zone,latitude,longitude
0,ABY0111,ALBURY,32.0,South Canterbury (Alpine Energy),LSI,-44.25151086190206,170.80038112330496
1,AKK0011,57 Hall Road Kerikeri,1.0,Bay of Islands (Top Energy),UNI,-35.2365317,173.9506725
2,AKL0331,AUCKLAND AIRPORT,4.0,Auckland (Vector),UNI,-36.96275241656938,174.8276150803857
3,ALB0331,ALBANY,3.0,Waitemata (Vector),UNI,-36.739090365587614,174.69013382562372
4,ALB1101,ALBANY,3.0,Waitemata (Vector),UNI,-36.739090365587614,174.69013382562372
5,ANI0331,ANIWHENUA,12.0,Eastern Bay of Plenty (Horizon Energy),CNI,-38.29527739742996,176.79194558606392
7,APC0011,APEX MEGA CENTRE,4.0,Auckland (Vector),UNI,-36.919633538021145,174.84042633664603
8,APS0111,ARTHURS PASS,30.0,Central Canterbury (Orion New Zealand),USI,-42.949045680065886,171.568848932917
9,ARA2201,ARATIATIA,13.0,Taupo (Unison Networks),CNI,-38.615890622306395,176.14303617726952
10,ARG1101,ARGYLE,,,USI,-41.670851040829234,173.202251099547
11,ARI1101,ARAPUNI,6.0,Thames Valley (Powerco),CNI,-38.07202558322729,175.642919277763
12,ARI1102,Arapuni,6.0,Thames Valley (Powerco),CNI,-38.07202558322729,175.642919277763
13,ASB0661,ASHBURTON,31.0,Ashburton (Electricity Ashburton),USI,-43.941637118694246,171.8021489973301
14,ASC0011,AVONHEAD,30.0,Central Canterbury (Orion New Zealand),USI,-43.53647515698681,172.5118180535355
15,ASY0111,ASHLEY,29.0,North Canterbury (MainPower NZ),USI,-43.262493201905706,172.62267386982836
17,ATI0111,ATIAMURI,9.0,King Country (The Lines Company),CNI,-38.39283133160734,176.02273036017652
19,ATI0112,ATIAMURI,11.0,Rotorua (Unison Networks),CNI,-38.39283133160734,176.02273036017652
21,ATI2201,ATIAMURI,9.0,King Country (The Lines Company),CNI,-38.39283133160734,176.02273036017652
22,AVI2201,AVIEMORE,33.0,Waitaki (Network Waitaki),LSI,-44.65844302239408,170.3543349363384
23,BAL0331,BALCLUTHA,36.0,Otago (OtagoNet JV),LSI,-46.2277047684518,169.7708808493582
24,BCK0011,160 HOBSONVILLE PT RD AUCKLAND,3.0,Waitemata (Vector),UNI,-36.7928268,174.6608468
25,BCK0012,160 HOBSONVILLE PT RD AUCKLAND,3.0,Waitemata (Vector),UNI,-36.7928268,174.6608468
26,BDE0111,BRYDONE,38.0,Southland (The Power Company),LSI,-46.224474722106045,168.8417311983834
28,BEN2202,BENMORE,33.0,Waitaki (Network Waitaki),LSI,-44.56559629595376,170.19357060664618
29,BJL0011,129 BEACHLANDS RD AUCKLAND,4.0,Auckland (Vector),UNI,-36.88944,175.0103112
30,BLF0111,Bluff,39.0,Invercargill (Electricity Invercargill),LSI,-46.599012532790745,168.34439050504253
32,BLN0331,BLENHEIM,26.0,Marlborough (Marlborough Lines),USI,-41.49842428330188,173.9325317994976
33,BMR0011,119 Bruce McLaren Road Henderson,3.0,Waitemata (Vector),UNI,-36.8985378,174.6241702
34,BOB0331,BOMBAY,5.0,Counties (Counties Power),UNI,-37.1886804624359,175.0000871264094
35,BOB1101,BOMBAY,5.0,Counties (Counties Power),UNI,-37.1886804624359,175.0000871264094
36,BPD1101,Bells Pond,32.0,South Canterbury (Alpine Energy),LSI,-44.90164017061765,171.01480949467202
37,BPE0331,BUNNYTHORPE,21.0,Manawatu (Powerco),LNI,-40.280614262847365,175.64051012022068
38,BPE0551,BUNNYTHORPE,21.0,Manawatu (Powerco),LNI,-40.280614262847365,175.64051012022068
39,BPT1101,BLACKPOINT,33.0,Waitaki (Network Waitaki),LSI,-44.88820762585716,170.7996546608735
40,BRB0331,BREAM BAY,2.0,Whangarei and Kaipara (Northpower),UNI,-35.8490321606811,174.47988530054124
41,BRI0111,BRICK STREET,3.0,Waitemata (Vector),UNI,-36.886090187319475,174.66030132996443
42,BRK0331,BRUNSWICK,20.0,Wanganui (Powerco),LNI,-39.8697842912758,175.05059553346877
43,BRY0661,BROMLEY,30.0,Central Canterbury (Orion New Zealand),USI,-43.5323735486582,172.69809831862747
44,BSC0011,BAYFAIR SHOPPING CENTRE,10.0,Tauranga (Powerco),CNI,-37.67788059852137,176.2142341822951
45,BTC0011,BOTANY TOWN CENTRE,4.0,Auckland (Vector),UNI,-36.925944796915644,174.9065669341031
46,BWK1101,BERWICK,,,LSI,-45.94046956312716,170.10217216203648
47,CAT0011,37-39 Camelot Place Auckland,3.0,Waitemata (Vector),UNI,-36.7809504,174.724998
48,CBG0111,CAMBRIDGE,8.0,Waipa (Waipa Networks),CNI,-37.87069649181922,175.4839323156518
49,CGA0011,48 GREYS AVENUE AUCKLAND,4.0,Auckland (Vector),UNI,-36.8540166,174.7616683
50,CGE0011,8 Tangihua St Auckland,4.0,Auckland (Vector),UNI,-36.8458624,174.7735703
51,CGP0011,Grand Plimmer Tower Wellington,23.0,Wellington (Wellington Electricity),LNI,-41.25862622782804,174.75982495281033
52,CGT0011,109 FEATHERSTON STREET,23.0,Wellington (Wellington Electricity),LNI,-41.282235404885185,174.77791659260484
53,CHV0011,8 Chivalry Road Auckland,3.0,Waitemata (Vector),UNI,-36.7764537,174.7237759
54,CIA0041,CHRISTCHURCH INTL AIRPORT,30.0,Central Canterbury (Orion New Zealand),USI,-43.53647515698681,172.5118180535355
55,CIA0111,CHRISTCHURCH INTL AIRPORT,30.0,Central Canterbury (Orion New Zealand),USI,-43.53647515698681,172.5118180535355
56,CIA0112,CHRISTCHURCH INTL AIRPORT,30.0,Central Canterbury (Orion New Zealand),USI,-43.53647515698681,172.5118180535355
57,CJC0011,16 Kate Sheppard Pl Wellington,23.0,Wellington (Wellington Electricity),LNI,-41.2776553,174.779259
58,CLC0011,88 Shortland St Auckland,4.0,Auckland (Vector),UNI,-36.84673739999999,174.7696856
59,CLH0111,CASTLE HILL,30.0,Central Canterbury (Orion New Zealand),USI,-43.213263481402215,171.72973432211805
60,CLN0011,351 LINCOLN ROAD ADDINGTON,30.0,Central Canterbury (Orion New Zealand),USI,-43.5418491,172.6136424
61,CLV0111,Kirimoko Cresent Wanaka,35.0,Central Otago (Aurora Energy),LSI,-44.6791047,169.1392614
62,CML0331,CROMWELL,35.0,Central Otago (Aurora Energy),LSI,-45.059673236869266,169.19172964835744
63,CMW0011,190 Walters Rd Takanini,4.0,Auckland (Vector),UNI,-37.0431434,174.9506387
64,CNL0011,SAS House 89 The Terrace WLG,23.0,Wellington (Wellington Electricity),LNI,-41.28170027068753,174.77523930547724
65,COL0111,COLERIDGE,30.0,Central Canterbury (Orion New Zealand),USI,-43.36376560022311,171.52712192899162
66,COL0661,COLERIDGE,,,USI,-43.36376560022311,171.52712192899162
67,CPK0111,Central Park,23.0,Wellington (Wellington Electricity),LNI,-41.30058664988758,174.76950477123637
68,CPK0331,Central Park,23.0,Wellington (Wellington Electricity),LNI,-41.30058664988758,174.76950477123637
69,CPP0111,Central Park,4.0,Auckland (Vector),UNI,-36.904340940327536,174.8162317331559
70,CRN0011,51 CORINTHIAN DRIVE PROPERTY,3.0,Waitemata (Vector),UNI,-36.73193542277837,174.7145685505695
73,CSE0011,66-86 Jervois Quay,23.0,Wellington (Wellington Electricity),LNI,-41.28793403276284,174.77810715448953
74,CST0331,CARRINGTON ST,19.0,Taranaki (Powerco),LNI,-39.08120928157704,174.08718826303948
75,CUL0331,CULVERDEN,29.0,North Canterbury (MainPower NZ),USI,-42.71863600084851,172.87622021022287
76,CUL0661,Culverden,29.0,North Canterbury (MainPower NZ),USI,-42.71863600084851,172.87622021022287
77,CYD0331,CLYDE,35.0,Central Otago (Aurora Energy),LSI,-45.180390510696675,169.30622444266075
79,CYD2201,CLYDE,35.0,Central Otago (Aurora Energy),LSI,-45.180390510696675,169.30622444266075
80,DCQ0011,33 Customhouse Quay Wellington,23.0,Wellington (Wellington Electricity),LNI,-41.2831604,174.7790787
81,DGS0011,226 GREAT SOUTH RD AUCKLAND,4.0,Auckland (Vector),UNI,-37.023145,174.8987993
82,DMW0011,MT WELLINGTON SHOPPING CNTR AUCK,4.0,Auckland (Vector),UNI,-36.9078,174.83936
83,DOB0331,DOBSON,28.0,West Coast (Westpower),USI,-42.45320942354361,171.30094104928418
84,DSH0011,DRESS-SMART HORNBY,30.0,Central Canterbury (Orion New Zealand),USI,-43.53647515698681,172.5118180535355
85,DSO0011,DRESS-SMART ONEHUNGA,4.0,Auckland (Vector),UNI,-36.904340940327536,174.8162317331559
86,DST0011,Outlet City 24 Main Road Tawa,23.0,Wellington (Wellington Electricity),LNI,-41.18321331600042,174.82542938534561
87,DTE0011,25 TEED STREET AUCKLAND,4.0,Auckland (Vector),UNI,-36.8690582,174.7755754
88,DTT0011,22 THE TERRACE WELLINGTON,23.0,Wellington (Wellington Electricity),LNI,-41.2796433,174.7750894
89,DVK0111,DANNEVIRKE,17.0,Southern Hawke's Bay (Scanpower),LNI,-40.1901029045316,176.0307687143582
90,ECR0011,2181 East Coast Road Silverdale,3.0,Waitemata (Vector),UNI,-36.62776230000001,174.6725623
91,EDG0331,EDGECUMBE,12.0,Eastern Bay of Plenty (Horizon Energy),CNI,-37.98725855244754,176.8288826778466
92,EDN0331,EDENDALE,38.0,Southland (The Power Company),LSI,-46.31145269354322,168.7782707600722
93,EHS0011,41 HOPPER STREET WELLINGTON,23.0,Wellington (Wellington Electricity),LNI,-41.29968239999999,174.7738626
94,EIL0011,ILL CASINO APARTMENTS,23.0,Wellington (Wellington Electricity),LNI,40.6331249,-89.3985283
95,EJS0011,73 Jackson St Petone,23.0,Wellington (Wellington Electricity),LNI,-41.22374860000001,174.8739903
96,EKV0011,Kerikeri Retirement Village,1.0,Bay of Islands (Top Energy),UNI,-35.39613642821829,173.81040007144117
97,ELE0011,ELEVATE APARTMENTS TARANAKI ST,23.0,Wellington (Wellington Electricity),LNI,-41.2914781,174.7791552
98,ELL0111,Elles Rd,39.0,Invercargill (Electricity Invercargill),LSI,-46.42720113090236,168.36145327052452
100,EMA0011,ESD ROCK SHOP MANNERS STREET,23.0,Wellington (Wellington Electricity),LNI,-41.30056901012124,174.7694804061401
101,EMB0011,I-Centre 44-50 Manners St,23.0,Wellington (Wellington Electricity),LNI,-41.30056901012124,174.7694804061401
102,EMT0011,164 THE TERRACE,23.0,Wellington (Wellington Electricity),LNI,-41.28523793860494,174.77362761151943
103,EMV0011,Mayfair Retirement Village,3.0,Waitemata (Vector),UNI,-36.71263465284783,174.7247192496198
104,ENB0011,NZX Building,23.0,Wellington (Wellington Electricity),LNI,-41.25862622782804,174.75982495281033
105,EPC0011,Peninsula Club R/V Whangaparaoa,3.0,Waitemata (Vector),UNI,-36.62259609614318,174.71849487966801
106,ERF0011,74 RIDDIFORD STREET WELLINGTON,23.0,Wellington (Wellington Electricity),LNI,-41.3102808945769,174.77869049707687
107,ERS0011,1 Roxburgh Street Wellington,23.0,Wellington (Wellington Electricity),LNI,-41.2941614,174.7847525
108,ESC0011,Eastgate Shopping Centre,30.0,Central Canterbury (Orion New Zealand),USI,-43.53235554040984,172.69809840845798
109,ESG0011,STADIUM GARDEN APARTMENTS,23.0,Wellington (Wellington Electricity),LNI,-41.275027633582695,174.7832847027479
110,ETC0011,Spark Central 72-80 Boulcott,23.0,Wellington (Wellington Electricity),LNI,-41.28670345115538,174.77496893648959
111,ETT0011,EDCL 28 Torrens Terrace,23.0,Wellington (Wellington Electricity),LNI,-41.30056901012124,174.7694804061401
112,EVA0011,ESDP Sovereign House,23.0,Wellington (Wellington Electricity),LNI,-41.25862622782804,174.75982495281033
113,FHL0331,FERNHILL,15.0,Hawke's Bay (Unison Networks),CNI,-39.599306970123976,176.76255662441517
114,FKN0331,FRANKTON,34.0,Queenstown (Aurora Energy),LSI,-45.01038446590047,168.74027483069196
116,FLG0111,FLAGSHIP,4.0,Auckland (Vector),UNI,-36.98779216349683,174.8845940718614
117,FND0112,Founders,24.0,Nelson (Nelson Electricity),USI,-41.26172337829594,173.296903270556
119,FSH0011,Fanshawe Street,4.0,Auckland (Vector),UNI,-36.904340940327536,174.8162317331559
120,FTS0011,40 Taranaki - NEC House,23.0,Wellington (Wellington Electricity),LNI,-39.3538149,174.4382721
121,GFD0331,Gracefield,23.0,Wellington (Wellington Electricity),LNI,-41.240288466506726,174.91709925074
122,GLN0331,GLENBROOK,5.0,Counties (Counties Power),UNI,-37.2048396093126,174.7324786646124
123,GLN0332,GLENBROOK,5.0,Counties (Counties Power),UNI,-37.2048396093126,174.7324786646124
125,GOR0331,GORE,38.0,Southland (The Power Company),LSI,-46.115091356128595,168.91165218219433
126,GRE0111,TUIHANA,10.0,Tauranga (Powerco),CNI,-37.67788059852137,176.2142341822951
127,GYM0661,GREYMOUTH,28.0,West Coast (Westpower),USI,-42.45489307144353,171.21444142749118
128,GYT0331,GREYTOWN,18.0,Wairarapa (Powerco),LNI,-41.1182406726764,175.43728377622637
129,HAM0111,HAMILTON,7.0,Waikato (WEL Networks),CNI,-37.77925811446788,175.3045829507142
130,HAM0331,HAMILTON,7.0,Waikato (WEL Networks),CNI,-37.77925811446788,175.3045829507142
131,HAM0551,HAMILTON,7.0,Waikato (WEL Networks),CNI,-37.77925811446788,175.3045829507142
132,HAY0111,Haywards,23.0,Wellington (Wellington Electricity),LNI,-41.150010308470065,174.98191364066125
133,HAY0331,Haywards,23.0,Wellington (Wellington Electricity),LNI,-41.150010308470065,174.98191364066125
134,HBS0011,1 Hobson St Auckland,4.0,Auckland (Vector),UNI,-36.904340940327536,174.8162317331559
135,HCN0011,124 HOBSONVILLE ROAD,3.0,Waitemata (Vector),UNI,-36.7977594,174.6478307
136,HEN0331,HENDERSON,3.0,Waitemata (Vector),UNI,-36.84112551548815,174.6175213023954
137,HEP0331,HEPBURN ROAD,3.0,Waitemata (Vector),UNI,-36.88593794418132,174.6602307071183
139,HER0111,HERITAGE ESTATE,38.0,Southland (The Power Company),LSI,-45.40734077740078,167.7158781176953
140,HGH0011,Highbury Shopping Centre,3.0,Waitemata (Vector),UNI,-36.73897428133801,174.69069125022793
141,HIN0331,HINUERA,6.0,Thames Valley (Powerco),CNI,-37.919625837532216,175.76535689001466
142,HKK0661,HOKITIKA,28.0,West Coast (Westpower),USI,-42.72479384493952,170.98295031626174
143,HLY0331,Huntly,7.0,Waikato (WEL Networks),CNI,-37.54158761969929,175.15181311039873
144,HLY2201,HUNTLY,7.0,Waikato (WEL Networks),CNI,-37.54158761969929,175.15181311039873
145,HMB0111,HALF MOON BAY,4.0,Auckland (Vector),UNI,-36.925944796915644,174.9065669341031
146,HOB1101,HOBSON STREET,4.0,Auckland (Vector),UNI,-36.84836825585684,174.7617352124449
147,HOR0331,HORORATA,30.0,Central Canterbury (Orion New Zealand),USI,-43.54564622237664,171.98111773046065
148,HOR0661,HORORATA,30.0,Central Canterbury (Orion New Zealand),USI,-43.54564622237664,171.98111773046065
149,HPL0011,St Aubyn St East Hastings,15.0,Hawke's Bay (Unison Networks),CNI,-39.6452035,176.8521625
150,HTI0331,HANGATIKI,9.0,King Country (The Lines Company),CNI,-38.251363260351454,175.17795592736388
151,HTI1101,Hangatiki,9.0,King Country (The Lines Company),CNI,-38.251363260351454,175.17795592736388
152,HUI0331,HUIRANGI,19.0,Taranaki (Powerco),LNI,-39.043420145271796,174.23703191435217
153,HUL0111,HULME PLACE,3.0,Waitemata (Vector),UNI,-36.886090187319475,174.66030132996443
154,HVN0331,HAVEN RD,24.0,Nelson (Nelson Electricity),USI,-41.314606671568164,173.24377423829608
156,HWA0331,HAWERA,19.0,Taranaki (Powerco),LNI,-39.566496504638614,174.3101166834193
157,HWA0332,KUPE GAS FIELD,19.0,Taranaki (Powerco),LNI,-39.566496504638614,174.3101166834193
158,HWA1101,HAWERA,,,LNI,-39.566496504638614,174.3101166834193
160,HWA1102,HAWERA,19.0,Taranaki (Powerco),LNI,-39.566496504638614,174.3101166834193
161,HWB0331,HALFWAY BUSH,37.0,Dunedin (Aurora Energy),LSI,-45.85487428861571,170.47569957860324
163,INV0331,INVERCARGILL,39.0,Invercargill (Electricity Invercargill),LSI,-46.392587238175196,168.3931166518232
165,ISL0331,ISLINGTON,30.0,Central Canterbury (Orion New Zealand),USI,-43.53649316481772,172.51181790825763
166,ISL0661,ISLINGTON,30.0,Central Canterbury (Orion New Zealand),USI,-43.53649316481772,172.51181790825763
167,JEF0111,JEFFS ROAD,4.0,Auckland (Vector),UNI,-36.954683905621735,174.86251809846152
168,JRD1101,Junction Road,19.0,Taranaki (Powerco),LNI,22.3327059,114.1871957
169,KAI0111,KAIAPOI,29.0,North Canterbury (MainPower NZ),USI,-43.38157394931841,172.63793574254632
170,KAW0111,KAWERAU,12.0,Eastern Bay of Plenty (Horizon Energy),CNI,-38.076728903946204,176.7223838618469
171,KAW0112,KAWERAU,12.0,Eastern Bay of Plenty (Horizon Energy),CNI,-38.076728903946204,176.7223838618469
172,KAW0113,KAWERAU,12.0,Eastern Bay of Plenty (Horizon Energy),CNI,-38.076728903946204,176.7223838618469
173,KAW1101,KAWERAU GEOTHERMAL,12.0,Eastern Bay of Plenty (Horizon Energy),CNI,-38.076728903946204,176.7223838618469
174,KBY0661,KIMBERLEY,30.0,Central Canterbury (Orion New Zealand),USI,-43.456404506824015,172.09899127807773
175,KBY0662,KIMBERLEY,30.0,Central Canterbury (Orion New Zealand),USI,-43.456404506824015,172.09899127807773
176,KCA0011,Penrod House,4.0,Auckland (Vector),UNI,-36.904340940327536,174.8162317331559
177,KCH0011,KIWI CENTREPLACE WEST,7.0,Waikato (WEL Networks),CNI,-37.779240324645116,175.3045710445159
178,KCH0012,KIWI CENTREPLACE EAST,7.0,Waikato (WEL Networks),CNI,-37.779240324645116,175.3045710445159
179,KCH0014,KIWI CENTREPLACE TOWER,7.0,Waikato (WEL Networks),CNI,-37.779240324645116,175.3045710445159
180,KDH0011,10 WORLEY PLACE,7.0,Waikato (WEL Networks),CNI,-37.779240324645116,175.3045710445159
181,KFA0111,21 Pitt Street,4.0,Auckland (Vector),UNI,-36.91382052814116,174.72572638946363
182,KIK0111,KIKIWA,25.0,Tasman (Network Tasman),USI,-41.67318463543083,172.87394287510338
183,KIN0111,KINLEITH,6.0,Thames Valley (Powerco),CNI,-38.27244137980118,175.88308676592578
184,KIN0112,KINLEITH,6.0,Thames Valley (Powerco),CNI,-38.27244137980118,175.88308676592578
185,KIN0113,Kinleith,6.0,Thames Valley (Powerco),CNI,-38.27244137980118,175.88308676592578
186,KIN0331,KINLEITH,6.0,Thames Valley (Powerco),CNI,-38.27244137980118,175.88308676592578
187,KIR0111,KIRKDALE,4.0,Auckland (Vector),UNI,-37.038963515842475,174.93360745650054
188,KMO0331,Kaitemako,10.0,Tauranga (Powerco),CNI,-37.739763036645144,176.16889698574445
189,KMW0011,KIWI MAJESTIC CENTRE,23.0,Wellington (Wellington Electricity),LNI,-41.30056901012124,174.7694804061401
190,KNA0011,205 Queen Street Auckland,4.0,Auckland (Vector),UNI,-36.91382052814116,174.72572638946363
191,KNW0111,North City Shopping Centre,23.0,Wellington (Wellington Electricity),LNI,-41.157324831188554,174.8715243691853
192,KOE1101,Kaikohe,1.0,Bay of Islands (Top Energy),UNI,-35.396161924572525,173.81063157178892
193,KPA1101,KAPONGA,19.0,Taranaki (Powerco),LNI,-39.429303224997106,174.1495438720066
194,KPO1101,KARAPIRO,6.0,Thames Valley (Powerco),CNI,-37.92434939401817,175.5374614935669
195,KPP0011,KIWI PLAZA,21.0,Manawatu (Powerco),LNI,-40.280726285259725,175.640338060872
196,KPU0661,KOPU,6.0,Thames Valley (Powerco),CNI,-37.19181246093461,175.6018372964199
197,KRA0111,KIWI ROYAL SUN ALLIANCE CENTRE,4.0,Auckland (Vector),UNI,-36.91382052814116,174.72572638946363
198,KTW0011,KIWI TERTWO,23.0,Wellington (Wellington Electricity),LNI,-41.25862622782804,174.75982495281033
199,KUA0011,70 Kuaka Drive Takanini Auckland,4.0,Auckland (Vector),UNI,-37.0396278,174.9381115
200,KUM0661,KUMARA,28.0,West Coast (Westpower),USI,-42.63551602884121,171.19555194414136
201,KWA0111,Kaiwharawhara,23.0,Wellington (Wellington Electricity),LNI,-41.25823775423998,174.78853336938164
202,KWG0011,WESTGATE ZONE 7 AUCKLAND,3.0,Waitemata (Vector),UNI,-36.8216098,174.6073286
203,LEV0331,Leven St,39.0,Invercargill (Electricity Invercargill),LSI,-46.40981283927653,168.34558442506597
205,LFD1101,LICHFIELD,6.0,Thames Valley (Powerco),CNI,-38.135128088630594,175.8242734930584
206,LFD1102,LICHFIELD,6.0,Thames Valley (Powerco),CNI,-38.135128088630594,175.8242734930584
207,LMC0011,Lynn Mall,3.0,Waitemata (Vector),UNI,-36.886090187319475,174.66030132996443
208,LTN0331,LINTON,21.0,Manawatu (Powerco),LNI,-40.41045203835688,175.63139355408734
209,LTN2201,TURITEA,21.0,Manawatu (Powerco),LNI,-40.41045203835688,175.63139355408734
210,LVF0011,cnr Leven St&Forth St Ingill,39.0,Invercargill (Electricity Invercargill),LSI,-46.4096785,168.3456424
211,MAN2201,MANAPOURI,38.0,Southland (The Power Company),LSI,-45.52086826290633,167.2774998394417
212,MAT1101,MATAHINA,12.0,Eastern Bay of Plenty (Horizon Energy),CNI,-38.11342928926802,176.8146170667938
214,MCH0111,MURCHISON,25.0,Tasman (Network Tasman),USI,-41.78881062997879,172.33692060831262
215,MEP0111,Mokai Energy Park,9.0,King Country (The Lines Company),CNI,-38.419099089717676,175.80001984342275
216,MEP0112,MOKAI,9.0,King Country (The Lines Company),CNI,-38.419099089717676,175.80001984342275
218,MEP0113,MOKAI,9.0,King Country (The Lines Company),CNI,-38.419099089717676,175.80001984342275
220,MEQ0011,42 TOTARA AVE NEW LYNN AUCKLAND,3.0,Waitemata (Vector),UNI,-36.9090528,174.6839813
221,MGM0331,MANGAMAIRE,21.0,Manawatu (Powerco),LNI,-40.51733831388193,175.75185043998317
222,MHL0011,MUSEUM HOTEL,23.0,Wellington (Wellington Electricity),LNI,-41.29182795260961,174.78258385820118
223,MHO0331,MANGAHAO,22.0,Kapiti and Horowhenua (Electra),LNI,-40.57657525658636,175.44893017311443
224,MKE1101,McKee,19.0,Taranaki (Powerco),LNI,-39.089336076640535,174.33296910493556
225,MLF0011,Milford Shopping Centre,3.0,Waitemata (Vector),UNI,-36.73897428133801,174.69069125022793
226,MLG0111,Melling,23.0,Wellington (Wellington Electricity),LNI,-41.20033265543402,174.91600395781975
227,MLG0331,Melling,23.0,Wellington (Wellington Electricity),LNI,-41.20033265543402,174.91600395781975
228,MMP0111,MACKENZIE PARK,32.0,South Canterbury (Alpine Energy),LSI,-44.27861126642614,170.10029789991827
229,MMT0111,MANUKA TERRACE,32.0,South Canterbury (Alpine Energy),LSI,-44.27861126642614,170.10029789991827
230,MNG0331,MANGERE,4.0,Auckland (Vector),UNI,-36.96277927336388,174.8276269544294
231,MNG1101,MANGERE,4.0,Auckland (Vector),UNI,-36.96277927336388,174.8276269544294
232,MNI0111,METHANEX,19.0,Taranaki (Powerco),LNI,-38.99390996047394,174.28822266715576
234,MPE1101,MAUNGATAPERE,2.0,Whangarei and Kaipara (Northpower),UNI,-35.76637055542402,174.20718169282762
235,MSC0011,MERIDIAN SHOPPING CENTRE,37.0,Dunedin (Aurora Energy),LSI,-45.85520943501605,170.47538813510968
236,MST0331,MASTERTON,18.0,Wairarapa (Powerco),LNI,-40.977273537634446,175.6114956774559
237,MTG0111,MANGATANGI,5.0,Counties (Counties Power),UNI,-37.10687635301602,175.2094495379321
239,MTI2201,MARAETAI,9.0,King Country (The Lines Company),CNI,-38.352736363346914,175.74426746123945
240,MTM0331,MT. MAUNGANUI,10.0,Tauranga (Powerco),CNI,-37.67790261246904,176.2140877663061
241,MTN0331,MARTON,20.0,Wanganui (Powerco),LNI,-40.10288062644319,175.36065654789655
242,MTO0331,MAUNGATUROTO,2.0,Whangarei and Kaipara (Northpower),UNI,-36.08666546178628,174.3591907141101
243,MTR0331,MATAROA,20.0,Wanganui (Powerco),LNI,-39.65788952219636,175.7019429411796
244,MXQ0111,80 Queen Street,4.0,Auckland (Vector),UNI,-36.904340940327536,174.8162317331559
245,MXS0011,South City Centre,30.0,Central Canterbury (Orion New Zealand),USI,-43.53894207990116,172.60241302163072
246,NAH0011,139 The Terrace Asteron House,23.0,Wellington (Wellington Electricity),LNI,-41.25862622782804,174.75982495281033
247,NAP2201,Nga Awa Purua,13.0,Taupo (Unison Networks),CNI,-38.61410816501483,176.17930017057847
248,NAP2202,NGATAMARIKI,13.0,Taupo (Unison Networks),CNI,-38.61410816501483,176.17930017057847
249,NAT0011,500 Victoria Street Hamilton,7.0,Waikato (WEL Networks),CNI,-38.65026068194596,176.18062321953445
250,NBS0011,10 Brandon Street Wellington,23.0,Wellington (Wellington Electricity),LNI,-41.2835473,174.7774926
251,NFC0011,95 Customhouse Quay Wellington,23.0,Wellington (Wellington Electricity),LNI,-41.2852836,174.7770529
252,NLK0111,OUTLET ROAD WANAKA,35.0,Central Otago (Aurora Energy),LSI,-44.6658359,169.1531339
253,NMA0331,NTH MAKAREWA,38.0,Southland (The Power Company),LSI,-46.30539088444356,168.35952698102201
254,NPK0331,NATIONAL PARK,9.0,King Country (The Lines Company),CNI,-39.15803813610344,175.39873260281016
255,NPP0011,Prime Property Tower,23.0,Wellington (Wellington Electricity),LNI,-41.25862622782804,174.75982495281033
256,NPS0011,NZAL PSIS Building,23.0,Wellington (Wellington Electricity),LNI,-41.25862622782804,174.75982495281033
257,NSR0011,81 MOLESWORTH STREET,23.0,Wellington (Wellington Electricity),LNI,-41.27482592853839,174.77769158877206
258,NSY0331,NASEBY,36.0,Otago (OtagoNet JV),LSI,-45.03318014098085,170.09335298589068
259,NTL0011,Northland Shopping Mall,30.0,Central Canterbury (Orion New Zealand),USI,-43.49282199110005,172.59211635990914
260,NTO0011,Technology One House,23.0,Wellington (Wellington Electricity),LNI,-41.25862622782804,174.75982495281033
261,NTU0111,Gorge Road Queenstown,34.0,Queenstown (Aurora Energy),LSI,-45.0098058,168.6712397
262,NUL0011,498 JACKSON ST PETONE WELLINGTON,23.0,Wellington (Wellington Electricity),LNI,-41.2310908,174.8966456
263,NWH0011,WEL House,7.0,Waikato (WEL Networks),CNI,-37.779240324645116,175.3045710445159
264,OAK0111,OAKLANDS,8.0,Waipa (Waipa Networks),CNI,-37.87066971778982,175.48392004893535
265,OAM0331,OAMARU,33.0,Waitaki (Network Waitaki),LSI,-45.06924775155293,170.91732209277785
266,OCB0111,IVC_CB13,39.0,Invercargill (Electricity Invercargill),LSI,-46.392587238175196,168.3931166518232
268,OHA2201,OHAU A,32.0,South Canterbury (Alpine Energy),LSI,-44.265871740348125,170.02921164355868
269,OHB2201,OHAU B,33.0,Waitaki (Network Waitaki),LSI,-44.301801310462835,170.1105511030369
270,OHC2201,OHAU C,33.0,Waitaki (Network Waitaki),LSI,-44.34356090557908,170.17949166476
271,OHK2201,OHAKURI,11.0,Rotorua (Unison Networks),CNI,-38.40796630351518,176.08596914380712
272,OKI2201,OHAAKI,11.0,Rotorua (Unison Networks),CNI,-38.52804809773698,176.2922322419816
273,OKN0111,OHAKUNE,9.0,King Country (The Lines Company),CNI,-39.4267925811092,175.36810377223426
275,ONG0331,ONGARUE,9.0,King Country (The Lines Company),CNI,-38.74572693498061,175.1816475849167
276,OPK0331,OPUNAKE,19.0,Taranaki (Powerco),LNI,-39.39258714692947,173.9273278257811
277,OPT0011,OPTIMATION HOUSE,23.0,Wellington (Wellington Electricity),LNI,-41.25862622782804,174.75982495281033
278,ORA0011,105 ORAHA ROAD KUMEU,3.0,Waitemata (Vector),UNI,-36.7679164,174.554941
279,ORO1101,OROWAITI,27.0,Buller (Buller Electricity),USI,-41.76371064217216,171.63359891321844
280,ORO1102,OROWAITI,27.0,Buller (Buller Electricity),USI,-41.76371064217216,171.63359891321844
281,OTA0221,OTAHUHU,4.0,Auckland (Vector),UNI,-36.95471075865364,174.862529983245
282,OTF0011,110 Featherston St Wellington,23.0,Wellington (Wellington Electricity),LNI,-41.2818076,174.7776793
283,OTI0111,OTIRA,28.0,West Coast (Westpower),USI,-42.8317309671764,171.5647810084265
284,OWH0111,OWHATA,11.0,Rotorua (Unison Networks),CNI,-38.129950292221764,176.32330703233905
285,OWS0011,1 Whitmore Street Pipitea Wgtn,23.0,Wellington (Wellington Electricity),LNI,-41.2817048,174.778704
286,PAK0331,PAKURANGA,4.0,Auckland (Vector),UNI,-36.92596263580994,174.90657860482276
287,PAO1101,PIAKO 110KV,6.0,Thames Valley (Powerco),CNI,-37.65050554839659,175.56077193947266
288,PAZ0111,ANZ CENTRE,4.0,Auckland (Vector),UNI,-36.84553262373644,174.76452991580138
289,PCB0011,6 Albert Street Auckland Central,4.0,Auckland (Vector),UNI,-36.8446395,174.7654369
290,PCB0012,15 Custom St West Akld Central,4.0,Auckland (Vector),UNI,-36.8441946,174.7657335
292,PEN0221,PENROSE,4.0,Auckland (Vector),UNI,-36.904581637672436,174.81640579083367
293,PEN0251,Penrose,4.0,Auckland (Vector),UNI,-36.904581637672436,174.81640579083367
294,PEN0331,PENROSE,4.0,Auckland (Vector),UNI,-36.904581637672436,174.81640579083367
296,PEN1101,PENROSE,4.0,Auckland (Vector),UNI,-36.904581637672436,174.81640579083367
297,PFB0011,55 Featherston Street Wellington,23.0,Wellington (Wellington Electricity),LNI,-41.25862622782804,174.75982495281033
298,PHP0011,171 FEATHERSTON ST PROPERTY,23.0,Wellington (Wellington Electricity),LNI,-41.2844491,174.7765307
299,PHS0011,195 Lambton Quay Wellington,23.0,Wellington (Wellington Electricity),LNI,-41.25905179795385,174.79063253149448
300,PIN0011,25 BUTE RD BROWNS BAY AUCKLAND,3.0,Waitemata (Vector),UNI,-36.7141027,174.7450226
301,PMH0011,MAYFAIR HOUSE,23.0,Wellington (Wellington Electricity),LNI,-41.28060442518538,174.7750424342212
302,PMK0011,Morrison Kent House Wellington,23.0,Wellington (Wellington Electricity),LNI,-41.25862622782804,174.75982495281033
303,PMP0011,AMP CENTRE,4.0,Auckland (Vector),UNI,-36.8440625,174.7651989
304,PNI0331,Pauatahanui,23.0,Wellington (Wellington Electricity),LNI,-41.10968003329051,174.91889110428187
305,POR0111,Porchester Road,4.0,Auckland (Vector),UNI,-37.038963515842475,174.93360745650054
306,PPH0011,PASTORAL HOUSE,23.0,Wellington (Wellington Electricity),LNI,-41.2797187,174.7755303
307,PPI2201,POIHIPI,13.0,Taupo (Unison Networks),CNI,-38.62977222628297,176.04125316517693
308,PPT0011,PWC TOWER 113 THE TERRACE WLG,23.0,Wellington (Wellington Electricity),LNI,-38.612301149599745,176.0551662738822
309,PPW0011,PWC TOWER,4.0,Auckland (Vector),UNI,-36.8432675427428,174.76531894181662
310,PRM0331,PARAPARAUMU,22.0,Kapiti and Horowhenua (Electra),LNI,-40.925378509664434,175.01233272225454
311,PSB0011,34 Ballantrae Place WELLINGTON,23.0,Wellington (Wellington Electricity),LNI,-41.2774765,174.7747833
312,PSI0011,STATE INSURANCE TOWER,23.0,Wellington (Wellington Electricity),LNI,-41.28670983484475,174.7763065617136
313,PSP0011,151 QUEEN STREET,4.0,Auckland (Vector),UNI,-36.8471209852011,174.7656094262083
314,PTA0011,1-3 THE TERRACE,23.0,Wellington (Wellington Electricity),LNI,-37.8610178,145.0223654
315,PTC0011,125 THE TERRACE,23.0,Wellington (Wellington Electricity),LNI,-41.28333376371235,174.77503282864143
316,PVG0011,VODAFONE ON THE QUAY,23.0,Wellington (Wellington Electricity),LNI,-41.28235619194532,174.7765108644298
317,PWC0011,139 PAKENHAM ST AUCKLAND,4.0,Auckland (Vector),UNI,-36.8432791,174.7562007
318,PWC0012,8-14 Madden Street Auckland,4.0,Auckland (Vector),UNI,-36.8423057,174.7570887
319,PWC0013,8-14 Madden St Auckland,4.0,Auckland (Vector),UNI,-36.8423057,174.7570887
320,PZH0011,ZURICH HOUSE,4.0,Auckland (Vector),UNI,-36.844412223663284,174.76653401653527
321,RDF0331,REDCLYFFE,15.0,Hawke's Bay (Unison Networks),CNI,-39.551561253770814,176.82184478911537
322,RFB0011,FORSYTH BARR,4.0,Auckland (Vector),UNI,-36.84712936985707,174.76868254299706
323,RFN1101,REEFTON,28.0,West Coast (Westpower),USI,-42.08227805286809,171.84580642669656
324,RFN1102,REEFTON,28.0,West Coast (Westpower),USI,-42.08227805286809,171.84580642669656
325,RFO0011,41 Shortland Street Auckland,4.0,Auckland (Vector),UNI,-36.84704376737731,174.7677721526947
326,RLC0011,117 Lambton Quay Wellington,23.0,Wellington (Wellington Electricity),LNI,-41.2807799,174.7762817
327,RLH0011,152-172 Lambton Quay Wellington,23.0,Wellington (Wellington Electricity),LNI,-41.2811718,174.7757169
328,RNC0011,NEILSEN CENTRE,3.0,Waitemata (Vector),UNI,-36.78559552199576,174.7734414504821
329,ROM0011,Royal Oak Mall,4.0,Auckland (Vector),UNI,-36.904340940327536,174.8162317331559
330,ROS0221,MT. ROSKILL,4.0,Auckland (Vector),UNI,-36.913838549063094,174.72572679557635
331,ROS1101,MT. ROSKILL,4.0,Auckland (Vector),UNI,-36.913838549063094,174.72572679557635
332,ROT0111,ROTORUA,11.0,Rotorua (Unison Networks),CNI,-38.148250149956375,176.2270409276958
333,ROT0331,ROTORUA,11.0,Rotorua (Unison Networks),CNI,-38.148250149956375,176.2270409276958
334,ROT1101,ROTORUA,,,CNI,-38.148250149956375,176.2270409276958
335,ROX1101,ROXBURGH,35.0,Central Otago (Aurora Energy),LSI,-45.477212911722766,169.31913607445858
336,ROX2201,ROXBURGH,35.0,Central Otago (Aurora Energy),LSI,-45.477212911722766,169.31913607445858
337,RPO2201,RANGIPO,9.0,King Country (The Lines Company),CNI,-39.1531940904612,175.8374431221605
338,RSC0011,Robt Jones Southern Cross Buildi,4.0,Auckland (Vector),UNI,-36.904340940327536,174.8162317331559
339,RTB0011,TELCO BUILDING,4.0,Auckland (Vector),UNI,-36.904340940327536,174.8162317331559
340,RWC0011,154 Featherston St Wellington,23.0,Wellington (Wellington Electricity),LNI,-41.2835618,174.776654
341,RYN0111,RYAN PLACE,4.0,Auckland (Vector),UNI,-36.98779216349683,174.8845940718614
342,SAC0011,ANZ CNR COLOMBO & CASHEL ST CHC,30.0,Central Canterbury (Orion New Zealand),USI,-43.5453765,172.6365063
343,SBK0661,SOUTHBROOK,29.0,North Canterbury (MainPower NZ),USI,-43.3273438689438,172.59870176346203
344,SDN0331,SOUTH DUNEDIN,37.0,Dunedin (Aurora Energy),LSI,-45.89075683354151,170.50749606146397
345,SFD0331,STRATFORD,19.0,Taranaki (Powerco),LNI,-39.334150747443864,174.3204577566664
346,SFD2201,STRATFORD,19.0,Taranaki (Powerco),LNI,-39.334150747443864,174.3204577566664
347,SML0111,SMALES FARM,3.0,Waitemata (Vector),UNI,-36.73897428133801,174.69069125022793
348,SOH0011,SoHo Apartments,23.0,Wellington (Wellington Electricity),LNI,-41.30056901012124,174.7694804061401
349,SOU0331,Southern Sub,39.0,Invercargill (Electricity Invercargill),LSI,-46.392587238175196,168.3931166518232
351,STD0111,Stead St,39.0,Invercargill (Electricity Invercargill),LSI,-46.392587238175196,168.3931166518232
353,STG0111,SOUTHGATE,3.0,Waitemata (Vector),UNI,-36.28503483294807,174.51329539142986
354,STK0331,STOKE,24.0,Nelson (Nelson Electricity),USI,-41.31494147101109,173.24305864003034
356,STK0661,STOKE,25.0,Tasman (Network Tasman),USI,-41.31494147101109,173.24305864003034
357,STL0011,The Sentinel,3.0,Waitemata (Vector),UNI,-36.73897428133801,174.69069125022793
358,STU0111,STUDHOLME,32.0,South Canterbury (Alpine Energy),LSI,-44.73228633797505,171.1373831035097
359,SVL0331,SILVERDALE,3.0,Waitemata (Vector),UNI,-36.62354646584576,174.68350310634222
360,SWN0251,NZ Rail Southdown,4.0,Auckland (Vector),UNI,-36.9303919726166,174.8142900092339
361,SWN2201,SOUTHDOWN,4.0,Auckland (Vector),UNI,-36.9303919726166,174.8142900092339
362,SYL0113,SYLVIA PARK,4.0,Auckland (Vector),UNI,-36.904340940327536,174.8162317331559
363,TAA0011,50 Anzac Ave Auckland,4.0,Auckland (Vector),UNI,-36.8472395,174.7725944
364,TAC0011,250 Tancred Street ASHBURTON,31.0,Ashburton (Electricity Ashburton),USI,-43.9077469,171.7494492
365,TAG0011,The Cab Apartments Auckland,4.0,Auckland (Vector),UNI,-36.85088270000001,174.7644881
366,TAK0331,TAKANINI,4.0,Auckland (Vector),UNI,-37.038990543513115,174.93360814212878
367,TAL0011,Atlas Quarter,30.0,Central Canterbury (Orion New Zealand),USI,-43.5371218,172.638557
368,TAQ0011,104 QUAY ST AUCKLAND,4.0,Auckland (Vector),UNI,-36.844388,174.7705877
369,TAT0011,154 THE TERRACE WELLINGTON,23.0,Wellington (Wellington Electricity),LNI,-41.2848168,174.7738881
371,TAY0011,3 Esk Street Invercargill,39.0,Invercargill (Electricity Invercargill),LSI,-46.4118495,168.3478912
372,TBA0011,36-42 CUSTOMS ST EAST AUCKLAND,4.0,Auckland (Vector),UNI,-36.8451258,174.7691547
373,TBC0011,BNZ CENTRE CHRISTCHURCH,30.0,Central Canterbury (Orion New Zealand),USI,-43.532928,172.6358743
374,TBD0011,DOMINION BUILDING,23.0,Wellington (Wellington Electricity),LNI,49.2825,-123.11
375,TBE0011,2-16 TAKU TAI SQUARE,4.0,Auckland (Vector),UNI,-36.84473261090667,174.769838510263
376,TBM0011,Barrington Mall,30.0,Central Canterbury (Orion New Zealand),USI,-43.5563189,172.6200844
377,TBQ0011,2-8 White St Auckland,4.0,Auckland (Vector),UNI,-36.8553284,174.7640431
378,TBR0011,35 Brecon Street,34.0,Queenstown (Aurora Energy),LSI,-45.029608,168.6570785
379,TBS0011,26-28 CUSTOMS ST EAST,4.0,Auckland (Vector),UNI,-36.8449004,174.7683286
380,TBV0011,The Botanic Retirement Village,3.0,Waitemata (Vector),UNI,-36.6259901,174.6664537
381,TBW0011,33 Broadway Newmarket Auckland,4.0,Auckland (Vector),UNI,-36.8646771,174.7780844
382,TCA0011,CENTURY CITY APARTMENTS,23.0,Wellington (Wellington Electricity),LNI,-41.291013896178434,174.7752291073817
383,TCB0011,4 Williamson Ave Auckland,4.0,Auckland (Vector),UNI,-36.8585971,174.7489817
384,TCC0011,Coastlands Plaza Paraparaumu,22.0,Kapiti and Horowhenua (Electra),LNI,-40.9177689,175.0048029
385,TCD0011,Chaffers Dock,23.0,Wellington (Wellington Electricity),LNI,-41.29118561106435,174.78567137780465
386,TCE0011,23 Customs St East Auckland,4.0,Auckland (Vector),UNI,-36.845216,174.76755
387,TCG0011,103 Carlton Gore Road,4.0,Auckland (Vector),UNI,-36.8650964,174.7742139
388,TCH0011,46-58 Customs Street East Auck,4.0,Auckland (Vector),UNI,-36.8452788,174.7697436
389,TCL0011,CHEWS LANE APARTMENTS,23.0,Wellington (Wellington Electricity),LNI,-41.287514642322584,174.77610150385576
390,TCM0011,306 Cameron Road,10.0,Tauranga (Powerco),CNI,-37.6896657,176.1651284
392,TCO0011,95 SWAYNE ROAD CAMBRIDGE,8.0,Waipa (Waipa Networks),CNI,-37.8710885,175.4710545
393,TCP0011,370 Oriental Parade Wellington,23.0,Wellington (Wellington Electricity),LNI,-41.28828499999999,174.8002751
394,TCQ0011,20 Customhouse Quay Wellington,23.0,Wellington (Wellington Electricity),LNI,-41.2827172,174.7781478
395,TCR0011,9 11 CORINTHIAN DR AUCKLAND,3.0,Waitemata (Vector),UNI,-36.7327214,174.7101774
396,TCS0011,11 Church Street Wellington,23.0,Wellington (Wellington Electricity),LNI,-41.2880362,174.7729996
397,TCT0011,TAURANGA CROSSING TAURIKURA DR,10.0,Tauranga (Powerco),CNI,-37.7372258,176.1055121
398,TCU0011,50 Customhouse Quay Wellington,23.0,Wellington (Wellington Electricity),LNI,-41.2845552,174.7770441
399,TDS0011,AWLY BUILDING 80 ARMAGH ST CHCH,30.0,Central Canterbury (Orion New Zealand),USI,-43.5297562,172.6333316
400,TDX0011,111 Dixon Street Wellington,23.0,Wellington (Wellington Electricity),LNI,-41.2910814,174.774171
401,TES0011,1-3 EDWARD STREET WELLINGTON,23.0,Wellington (Wellington Electricity),LNI,-41.29092230000001,174.7752172
402,TET0011,EAGLE TECHNOLOGY HOUSE,23.0,Wellington (Wellington Electricity),LNI,-41.2911158602603,174.7756259695979
403,TFJ0011,FUJITSU TOWER 141 THE TERRACE,23.0,Wellington (Wellington Electricity),LNI,-41.284416940498126,174.77488307366025
404,TFM0011,FIVE MILE SHOPPING CENTRE,34.0,Queenstown (Aurora Energy),LSI,-45.0130461,168.7430014
405,TFQ0011,100 TAUPO QUAY WANGANUI,20.0,Wanganui (Powerco),LNI,-39.9363834,175.0536122
406,TFR0011,153 Pukehangi Road,11.0,Rotorua (Unison Networks),CNI,-38.1418779,176.1995628
407,TFS0011,152 FANSHAWE ST AUCKLAND,4.0,Auckland (Vector),UNI,-36.8466444,174.7568041
408,TFS0012,155 Fanshawe St Akld,4.0,Auckland (Vector),UNI,-36.8453633,174.7545688
409,TFS0013,136 Fanshawe Street AUCKLAND,4.0,Auckland (Vector),UNI,-36.84657929999999,174.7576024
410,TFT0011,4 Fred Thomas Drive,3.0,Waitemata (Vector),UNI,-36.7923444,174.7636245
411,TGA0111,TAURANGA,10.0,Tauranga (Powerco),CNI,-37.72771588651823,176.13086945006526
412,TGA0331,TAURANGA,10.0,Tauranga (Powerco),CNI,-37.72771588651823,176.13086945006526
413,TGB0011,96 St Georges Bay Road Auckland,4.0,Auckland (Vector),UNI,-36.8524457,174.7821066
414,TGC0011,THE GRAND ARCADE,23.0,Wellington (Wellington Electricity),LNI,-41.28661689657055,174.77532483573913
415,TGD0011,Goddards Shopping Centre,10.0,Tauranga (Powerco),CNI,-37.6851028,176.1691198
416,TGN0011,The Groves 4155 Great North Rd,3.0,Waitemata (Vector),UNI,-36.9001628,174.6531846
417,TGR0011,141 CASHEL ST CHRISTCHURCH 8011,30.0,Central Canterbury (Orion New Zealand),USI,-43.5328772,172.6384368
418,TGS0011,650 Great South Rd Auckland,4.0,Auckland (Vector),UNI,-36.9568605,174.8526376
419,TGS0012,656 Great South Rd Ellersie,4.0,Auckland (Vector),UNI,-36.9009464,174.806655
420,TGT0011,Guardian Trust Building,23.0,Wellington (Wellington Electricity),LNI,-41.28682261489963,174.7771694134378
421,TGW0011,31 Galway St AUCKLAND,4.0,Auckland (Vector),UNI,-36.8448461,174.7687136
423,THH0011,21 Home Straight Te Rapa,7.0,Waikato (WEL Networks),CNI,-37.7608764,175.2530485
424,THI2201,TE MIHI,13.0,Taupo (Unison Networks),CNI,-38.61695228097266,176.0433294128048
425,THP0011,HOPETOUN RESIDENCES,4.0,Auckland (Vector),UNI,-36.858155,174.7527441
426,THP0012,7 Hopetoun Street Auckland,4.0,Auckland (Vector),UNI,-36.8585042,174.7522076
427,THS0011,THE HSBC TOWER,30.0,Central Canterbury (Orion New Zealand),USI,-43.53087018299674,172.6391848830948
428,TIM0111,TIMARU,32.0,South Canterbury (Alpine Energy),LSI,-44.37263541994158,171.23028270280236
429,TJS0011,3-11 Hunter Street Wellington,23.0,Wellington (Wellington Electricity),LNI,-41.2856928,174.7776768
430,TJW0011,243-261 Princes Street Dunedin,37.0,Dunedin (Aurora Energy),LSI,-45.8779099,170.5021598
431,TKA0111,Tekapo A,32.0,South Canterbury (Alpine Energy),LSI,-44.013807109616614,170.460853384948
432,TKA0331,TEKAPO A,32.0,South Canterbury (Alpine Energy),LSI,-44.013807109616614,170.460853384948
433,TKB2201,Tekapo B,32.0,South Canterbury (Alpine Energy),LSI,-44.12516128021581,170.21174758478506
434,TKI0011,2 Kitchener St Auckland,4.0,Auckland (Vector),UNI,-36.8506131,174.7661089
435,TKL0011,16 West Coast Rd Glen Eden Akld,3.0,Waitemata (Vector),UNI,-36.9097789,174.662761
436,TKM0011,The Karori Mall,23.0,Wellington (Wellington Electricity),LNI,-41.28457072241923,174.7376546953946
437,TKO0011,10 Waterloo Quay Wellington,23.0,Wellington (Wellington Electricity),LNI,-41.281382,174.7797544
438,TKR0331,Takapu Road,23.0,Wellington (Wellington Electricity),LNI,-41.157341288595816,174.87162018079087
439,TKS0011,KATE SHEPPARD APARTMENTS,23.0,Wellington (Wellington Electricity),LNI,-41.2751363,174.778034
440,TKU0331,TOKAANU,9.0,King Country (The Lines Company),CNI,-38.981721323257396,175.77022447300686
442,TKU2201,TOKAANU,9.0,King Country (The Lines Company),CNI,-38.981721323257396,175.77022447300686
443,TKV0011,30 Walters Rd Takanini Auckland,4.0,Auckland (Vector),UNI,-37.0480664,174.9323844
444,TKV0012,30 Walters Rd Takanini Auckland,4.0,Auckland (Vector),UNI,-37.0480664,174.9323844
445,TLB0011,88 Te Oneroa Way Auckland,3.0,Waitemata (Vector),UNI,-36.6852136,174.740575
446,TLC0111,Tangiwai Ohakune Interconnect,9.0,King Country (The Lines Company),CNI,-39.4185581,175.3996118
448,TLN0011,131 LINCOLN ROAD AUCKLAND,3.0,Waitemata (Vector),UNI,-36.86428069999999,174.6294233
449,TLQ0011,318 LAMBTON QUAY WELLINGTON,23.0,Wellington (Wellington Electricity),LNI,-41.285393,174.7755718
450,TMA0011,123 Molesworth St Wellington,23.0,Wellington (Wellington Electricity),LNI,-41.2734161,174.7776144
451,TMC0011,2 Connoly St Lower Hutt,23.0,Wellington (Wellington Electricity),LNI,-41.2042223,174.9116741
452,TMF0011,MLC Fairway Gardens Auckland,4.0,Auckland (Vector),UNI,-36.9174728,174.9129486
453,TMG0011,MLC Gulf Rise Auckland,3.0,Waitemata (Vector),UNI,-36.6107536,174.6900354
454,TMI0331,TE MATAI,10.0,Tauranga (Powerco),CNI,-37.81687871806198,176.33956336710608
455,TMK0331,TEMUKA,32.0,South Canterbury (Alpine Energy),LSI,-44.22363504254553,171.2922448443268
456,TML0011,1 MARKET LANE WELLINGTON,23.0,Wellington (Wellington Electricity),LNI,-41.29042975631392,174.77922585186536
457,TMM0111,80b BURWOOD RD MATAMATA,6.0,Thames Valley (Powerco),CNI,-37.8222277,175.7775971
458,TMN0011,6-8 Munroe Lane,3.0,Waitemata (Vector),UNI,-38.88916659495113,175.32688630594004
459,TMN0551,TAUMARUNUI,9.0,King Country (The Lines Company),CNI,-38.88916659495113,175.32688630594004
460,TMO0011,Metlife Orion Point AKL,3.0,Waitemata (Vector),UNI,-36.79747649999999,174.6660043
461,TMP0011,Metlife Pohutukawa AKL,4.0,Auckland (Vector),UNI,-43.52435661786124,172.4676896803618
462,TMT0011,65-93 Lakeside Road Wanaka Otago,35.0,Central Otago (Aurora Energy),LSI,-44.6909614,169.1350051
463,TMU0111,TE AWAMUTU,8.0,Waipa (Waipa Networks),CNI,-38.00214245871714,175.32016545834458
464,TMX0011,602 Great South Road Auckland,4.0,Auckland (Vector),UNI,-36.8976294,174.8029196
465,TNA0011,Northpoint 170 Fraser Ave Wlg,23.0,Wellington (Wellington Electricity),LNI,-41.3275941,174.8075984
466,TNG0111,TANGIWAI,9.0,King Country (The Lines Company),CNI,-39.4654025686521,175.5725573801303
467,TNG0551,TANGIWAI,9.0,King Country (The Lines Company),CNI,-39.4654025686521,175.5725573801303
468,TNP0011,Centre City Gill St New Plymouth,19.0,Taranaki (Powerco),LNI,-39.0564893,174.0737321
469,TNU0011,8 Nugent Street Auckland,4.0,Auckland (Vector),UNI,-36.865818,174.7640695
470,TNV0011,NOUVO APARTMENTS MT COOK WLG,23.0,Wellington (Wellington Electricity),LNI,-41.3275941,174.8075984
471,TOD0011,3-5 Oracle Drive Auckland,3.0,Waitemata (Vector),UNI,-36.7322504,174.7127911
472,TOM0011,226-240 Ormiston Rd Flatbush,4.0,Auckland (Vector),UNI,-37.6746833180851,176.22375386876948
473,TON0011,20 Omana Road Milford,3.0,Waitemata (Vector),UNI,-36.7706864,174.7660237
474,TOR0011,49 TORY STREET WELLINGTON,23.0,Wellington (Wellington Electricity),LNI,-41.29440858109505,174.78112543715
475,TOX0011,32 Oxford Terrace,30.0,Central Canterbury (Orion New Zealand),USI,-43.5348705,172.6295047
476,TPA0011,Pinnacle Apartments Wellington,23.0,Wellington (Wellington Electricity),LNI,-41.2923814,174.7787463
477,TPC0011,PWC Centre 58 Cashel St ChCh,30.0,Central Canterbury (Orion New Zealand),USI,-43.5333437,172.6316128
478,TPD0011,97 Taranaki St Wellington,23.0,Wellington (Wellington Electricity),LNI,-41.2946649,174.7787562
479,TPH0111,Te Pahu,7.0,Waikato (WEL Networks),CNI,-37.9192385,175.1347606
481,TPK0011,Peak Apartments Wellington,23.0,Wellington (Wellington Electricity),LNI,-41.29616559999999,174.7765306
482,TPM0011,THE PIERMONT/MONUMENT APARTMENTS,23.0,Wellington (Wellington Electricity),LNI,-41.2912527136464,174.7819233072199
483,TPP0011,7 Gravatt Road Papamoa,10.0,Tauranga (Powerco),CNI,-37.6983368,176.2815185
484,TPS0011,The Palms,30.0,Central Canterbury (Orion New Zealand),USI,-43.53235554040984,172.69809840845798
485,TPW0011,141 Pakenham St West Auck,4.0,Auckland (Vector),UNI,-36.8426503,174.7556303
486,TPW0012,132 Halsey Street Auckland,4.0,Auckland (Vector),UNI,-36.8426442,174.757192
487,TPW0013,30 Madden Stage1,4.0,Auckland (Vector),UNI,-36.8419082,174.7549308
488,TQB0011,51 WEBB STREET,23.0,Wellington (Wellington Electricity),LNI,-41.29786337228538,174.77321725726782
489,TQC0011,Queenstown Central,34.0,Queenstown (Aurora Energy),LSI,-45.0302531,168.6614693
490,TQD0011,40-44 Queens Drive HUTT CENTRAL,23.0,Wellington (Wellington Electricity),LNI,-41.2108346,174.9027501
491,TQS0011,246 QUEEN STREET AUCKLAND,4.0,Auckland (Vector),UNI,-36.849936883899396,174.76536016549025
492,TQS0012,125 Queen Street Auckland,4.0,Auckland (Vector),UNI,-36.849936883899396,174.76536016549025
493,TQW0011,CLYDE QUAY WHARF,23.0,Wellington (Wellington Electricity),LNI,-41.290145218826396,174.78596543848496
495,TRC0011,THE ROSKILL CENTRE,4.0,Auckland (Vector),UNI,-36.9082659658372,174.73392948918786
496,TRK0111,TARUKENGA,11.0,Rotorua (Unison Networks),CNI,-38.07383777497483,176.15963407806507
497,TRM0011,RIVERSIDE MARKETS,30.0,Central Canterbury (Orion New Zealand),USI,-43.5338417,172.6339121
498,TRN0011,Richmond Mall Nelson,25.0,Tasman (Network Tasman),USI,-41.3394719,173.1860839
499,TRR0011,Riverside Residence Dunedin,35.0,Central Otago (Aurora Energy),LSI,-45.8795455,170.5005957
500,TRS0111,Ruakura Superhub,7.0,Waikato (WEL Networks),CNI,-37.7729222,175.3289868
501,TRT0011,REPUBLIC BUILDING,23.0,Wellington (Wellington Electricity),LNI,-41.295338229759956,174.7821658977246
502,TRV0011,130 Richmond Street Petone,23.0,Wellington (Wellington Electricity),LNI,-41.21990419999999,174.8811806
503,TSA0011,46 Sales St Auckland,4.0,Auckland (Vector),UNI,-36.8966851,174.9362478
504,TSB0011,66 THE SQUARE PALMERSTON NORTH,21.0,Manawatu (Powerco),LNI,-40.3573234,175.6123254
506,TSG0011,THE SOUTHGATE MALL,4.0,Auckland (Vector),UNI,-37.023772171127725,174.89985973526677
507,TSH0011,Timaru Showgrounds,32.0,South Canterbury (Alpine Energy),LSI,-44.3724558,171.2418263
508,TSM0011,Silverdale Mall Auckland,3.0,Waitemata (Vector),UNI,-36.6129867,174.680215
509,TSN0011,79 QUEEN STREET,4.0,Auckland (Vector),UNI,-36.845561706053616,174.7662128079674
510,TSP0011,43 MULGRAVE ST WELLINGTON,23.0,Wellington (Wellington Electricity),LNI,-41.2761015,174.7797018
511,TSQ0011,10 Ebor Street Te Aro Wellington,23.0,Wellington (Wellington Electricity),LNI,-41.2948608,174.7789586
512,TSS0011,34 SHORTLAND ST AUCKLAND,4.0,Auckland (Vector),UNI,-36.8465356,174.7677644
513,TSW0011,Steamer Wharf,34.0,Queenstown (Aurora Energy),LSI,-45.0333723,168.6577251
514,TTA0011,19 College Street Wellington,23.0,Wellington (Wellington Electricity),LNI,-41.2962839,174.7806869
515,TTC0011,THE CUBE,23.0,Wellington (Wellington Electricity),LNI,-41.298561360373526,174.77526659724532
516,TTF0011,Farmers-Tauranga Retail,10.0,Tauranga (Powerco),CNI,-37.7419261,176.1035459
517,TTF0012,38 Elizabeth Street Tauranga,10.0,Tauranga (Powerco),CNI,-37.687537,176.1683799
518,TTG0011,T&G Building,4.0,Auckland (Vector),UNI,-37.8155135,144.9691604
519,TTH0011,THE HUB 398 MAIN SOUTH ROAD,30.0,Central Canterbury (Orion New Zealand),USI,-43.54338210558481,172.5447257233898
520,TTR0011,162 FLAT BUSH SCHOOL RD,4.0,Auckland (Vector),UNI,-36.9742858,174.9192878
521,TTS0011,TAKAPUNA AUCKLAND,3.0,Waitemata (Vector),UNI,-36.7898599,174.7651224
522,TTT0011,TOURISM & TRAVEL HOUSE,23.0,Wellington (Wellington Electricity),LNI,-41.28645945334201,174.77443689642075
523,TUI1101,TUIA FOR EAST,14.0,Eastland (Eastland Network),CNI,-38.80535421667333,177.15139892120368
525,TVA0011,123 Victoria Street Christchurch,30.0,Central Canterbury (Orion New Zealand),USI,-43.5237782,172.629505
526,TVI0011,47-49 Vivian Street Wellington,23.0,Wellington (Wellington Electricity),LNI,-41.2961988,174.7789382
527,TVN0011,City Lodge Apartments Wellington,23.0,Wellington (Wellington Electricity),LNI,-41.2923814,174.7787463
528,TVP0011,166 VICTORIA ST Wellington,23.0,Wellington (Wellington Electricity),LNI,-41.29227119999999,174.7741058
530,TVT0011,VICTORIA ST AUCKLAND,4.0,Auckland (Vector),UNI,-45.53794073965072,169.32261236886134
531,TWA0011,2026 STEWART DUFF DR Wellington,23.0,Wellington (Wellington Electricity),LNI,-41.3305202,174.8120662
532,TWC2201,NZ Windfarms,21.0,Manawatu (Powerco),LNI,-40.35426721055839,175.7737100044436
533,TWG0011,8 Wigan Street Wellington,23.0,Wellington (Wellington Electricity),LNI,-41.296107,174.7760648
534,TWH0331,TE KOWHAI,7.0,Waikato (WEL Networks),CNI,-37.738327273868975,175.15413878980686
535,TWI2201,TIWAI POINT,38.0,Southland (The Power Company),LSI,-46.58976238223836,168.39260469046945
536,TWM0011,WAITAKERE MEGA CENTRE AUCKLAND,3.0,Waitemata (Vector),UNI,-36.8826345,174.6351591
537,TWQ0011,14 WEST QUAY AHURIRI NAPIER,15.0,Hawke's Bay (Unison Networks),CNI,-39.48638270000001,176.8924877
538,TWS0011,Willbank house WELLINGTON,23.0,Wellington (Wellington Electricity),LNI,-41.187613,174.828222
539,TWZ0331,TWIZEL,32.0,South Canterbury (Alpine Energy),LSI,-44.278628931498865,170.10028449916186
542,UHT0331,Upper Hutt,23.0,Wellington (Wellington Electricity),LNI,-41.099553816581555,175.09426494463932
543,URK0111,UPPER RAKAIA,30.0,Central Canterbury (Orion New Zealand),USI,-43.36374394164419,171.52683859874165
544,VGH0011,GHD CENTRE,4.0,Auckland (Vector),UNI,-36.85052657115689,174.75292445535558
546,WAB0011,WESTFIELD ALBANY,3.0,Waitemata (Vector),UNI,-36.73897428133801,174.69069125022793
547,WAI0111,WAIOTAHI,12.0,Eastern Bay of Plenty (Horizon Energy),CNI,-38.025250061210215,177.19230792949253
548,WAI0501,WAIOTAHI,12.0,Eastern Bay of Plenty (Horizon Energy),CNI,-38.025250061210215,177.19230792949253
549,WCW0011,WESTFEILD CHARTWELL,7.0,Waikato (WEL Networks),CNI,-37.779240324645116,175.3045710445159
550,WCW0111,WESTFEILD CHARTWELL,7.0,Waikato (WEL Networks),CNI,-37.779240324645116,175.3045710445159
551,WDV0111,WOODVILLE,17.0,Southern Hawke's Bay (Scanpower),LNI,-40.315456837216786,175.85606683277965
552,WDV1101,WOODVILLE,17.0,Southern Hawke's Bay (Scanpower),LNI,-40.315456837216786,175.85606683277965
553,WEL0331,WELLSFORD,3.0,Waitemata (Vector),UNI,-36.28476277122928,174.51342375020388
554,WFL0011,WESTFIELD MANUKAU,4.0,Auckland (Vector),UNI,-36.98779216349683,174.8845940718614
555,WGF0011,GLENFIELD SHOPPING CENTRE,3.0,Waitemata (Vector),UNI,-36.73897428133801,174.69069125022793
556,WGN0331,WANGANUI,20.0,Wanganui (Powerco),LNI,-39.93816259419856,175.11916852709913
557,WGT0011,WESTGATE TOWN CENTRE,3.0,Waitemata (Vector),UNI,-36.822124595311934,174.61022605549502
558,WHA0011,Oyster Capital,3.0,Waitemata (Vector),UNI,-36.8454698,174.7588926
559,WHI0111,WHIRINAKI,15.0,Hawke's Bay (Unison Networks),CNI,-39.38206198089979,176.88676747314082
560,WHI2201,WHIRINAKI,15.0,Hawke's Bay (Unison Networks),CNI,-39.38206198089979,176.88676747314082
561,WHU0331,WAIHOU,6.0,Thames Valley (Powerco),CNI,-37.569237054493506,175.68306967880218
562,WIL0331,Wilton,23.0,Wellington (Wellington Electricity),LNI,-41.258396147900875,174.75955617456677
563,WIR0331,WIRI,4.0,Auckland (Vector),UNI,-36.987810182614794,174.88459451653904
564,WKM0331,WHAKAMARU,9.0,King Country (The Lines Company),CNI,-38.419081880471595,175.80036274527822
566,WKM2201,WHAKAMARU,9.0,King Country (The Lines Company),CNI,-38.419081880471595,175.80036274527822
568,WKO0331,WAIKINO,6.0,Thames Valley (Powerco),CNI,-37.41589570547728,175.7747214999792
569,WNF0011,Westfield Nuffield Street,4.0,Auckland (Vector),UNI,-36.87094356555603,174.77829613240834
570,WPA2201,WAIPAPA,8.0,Waipa (Waipa Networks),CNI,-38.29166089985556,175.6834078297818
571,WPG0331,WAIPORI GENERATION,37.0,Dunedin (Aurora Energy),LSI,-45.85520943501605,170.47538813510968
572,WPH0011,Waipunahau Waikanae,22.0,Kapiti and Horowhenua (Electra),LNI,-40.8657052,175.0672273
573,WPK0011,WESTFIELD PAKURANGA,4.0,Auckland (Vector),UNI,-36.925944796915644,174.9065669341031
574,WPR0331,WAIPARA,29.0,North Canterbury (MainPower NZ),USI,-43.051899166748925,172.75608957521965
575,WPR0661,WAIPARA,29.0,North Canterbury (MainPower NZ),USI,-43.051899166748925,172.75608957521965
576,WPV0061,WAIPORI VILLAGE,37.0,Dunedin (Aurora Energy),LSI,-45.90549747198294,169.9852226655592
577,WPW0331,WAIPAWA,16.0,Central Hawke's Bay (Centralines),LNI,-39.918687778799736,176.44697338173117
578,WQG0011,WESTFIELD QUEENSGATE,23.0,Wellington (Wellington Electricity),LNI,-41.200324049317075,174.9159798553793
579,WRD0331,WAIRAU ROAD,3.0,Waitemata (Vector),UNI,-36.78064342669688,174.74689387762572
580,WRK0331,WAIRAKEI,13.0,Taupo (Unison Networks),CNI,-38.62570560247087,176.105463252824
581,WRK2201,WAIRAKEI,13.0,Taupo (Unison Networks),CNI,-38.62570560247087,176.105463252824
582,WRN0011,WESTFIELD RICCARTON,30.0,Central Canterbury (Orion New Zealand),USI,-43.53894207990116,172.60241302163072
583,WRN0012,Westfield Riccarton,30.0,Central Canterbury (Orion New Zealand),USI,-43.53894207990116,172.60241302163072
584,WRN0111,WESTFIELD RICCARTON,30.0,Central Canterbury (Orion New Zealand),USI,-43.53894207990116,172.60241302163072
585,WSC0011,WESTFIELD SHORE CITY,3.0,Waitemata (Vector),UNI,-36.73897428133801,174.69069125022793
586,WSG0011,NORTHWEST SHOPPING CENTRE,3.0,Waitemata (Vector),UNI,-36.8178005,174.6110421
587,WSG0012,NORTHWEST SHOPPING CENTRE AUCK,3.0,Waitemata (Vector),UNI,-36.8178005,174.6110421
588,WSL0111,WESTFIELD ST LUKES,4.0,Auckland (Vector),UNI,-36.91382052814116,174.72572638946363
589,WTK0111,WAITAKI,33.0,Waitaki (Network Waitaki),LSI,-44.69209931296333,170.42902880701294
591,WTK0331,WAITAKI,33.0,Waitaki (Network Waitaki),LSI,-44.69209931296333,170.42902880701294
592,WTR0111,Shortcut Road Cromwell,35.0,Central Otago (Aurora Energy),LSI,-45.0301851,169.2010238
593,WTS0011,WESTFIELD TWO DOUBLE SEVEN,4.0,Auckland (Vector),UNI,-36.904340940327536,174.8162317331559
594,WTU0331,WHAKATU,15.0,Hawke's Bay (Unison Networks),CNI,-39.606265764891624,176.88131440945583
595,WVY0111,WAVERLEY,20.0,Wanganui (Powerco),LNI,-39.754097380309815,174.6355025818714
596,WVY1101,WAVERLEY,20.0,Wanganui (Powerco),LNI,-39.754097380309815,174.6355025818714
597,WWC0011,WESTFIELD WESTCITY,3.0,Waitemata (Vector),UNI,-36.886090187319475,174.66030132996443
598,WWD1102,Westwind,23.0,Wellington (Wellington Electricity),LNI,-41.295617834785226,174.66049610393668
599,WWD1103,Westwind,23.0,Wellington (Wellington Electricity),LNI,-41.295617834785226,174.66049610393668
600,AAL0331,AUCKLAND AIRPORT,4.0,Auckland (Vector),UNI,-36.96275241656938,174.8276150803857
603,ADD0111,ADDINGTON,30.0,Central Canterbury (Orion New Zealand),USI,-43.538960087944766,172.6024129033023
605,ADD0661,ADDINGTON,30.0,Central Canterbury (Orion New Zealand),USI,-43.538960087944766,172.6024129033023
607,AHA0111,ARAHURA,28.0,West Coast (Westpower),USI,-42.690362901425694,171.00066666330926
615,ANA0111,AROHENA,9.0,King Country (The Lines Company),CNI,-38.19213268788067,175.62814519679097
617,AOT0111,AOTEA,23.0,Wellington (Wellington Electricity),LNI,-41.157324831188554,174.8715243691853
627,ASB0331,ASHBURTON,31.0,Ashburton (Electricity Ashburton),USI,-43.941637118694246,171.8021489973301
655,ATU1101,ATARAU,28.0,West Coast (Westpower),USI,-42.3354639239065,171.49519520365783
660,BAN0111,Bainfield Rd,39.0,Invercargill (Electricity Invercargill),LSI,-46.37547786139969,168.353203537959
663,BEN0162,BENMORE,33.0,Waitaki (Network Waitaki),LSI,-44.56559629595376,170.19357060664618
665,BEN0163,BENMORE,33.0,Waitaki (Network Waitaki),LSI,-44.56559629595376,170.19357060664618
667,BFT0111,Belfast,30.0,Central Canterbury (Orion New Zealand),USI,-43.49282199110005,172.59211635990914
691,BRY0111,BROMLEY,30.0,Central Canterbury (Orion New Zealand),USI,-43.5323735486582,172.69809831862747
708,CAM0011,151 - 159 WILLIS ST WELLINGTON,23.0,Wellington (Wellington Electricity),LNI,-41.2903188,174.7741936
709,CBE0331,CAIRNBRAE,31.0,Ashburton (Electricity Ashburton),USI,-43.66799704123981,171.6859243482871
711,CFM0011,FMG House,21.0,Manawatu (Powerco),LNI,-40.41044357497197,175.63136965622627
715,CGM0011,89-91 COURTENAY PLACE WLG,23.0,Wellington (Wellington Electricity),LNI,-41.3275941,174.8075984
745,COB0661,COBB,25.0,Tasman (Network Tasman),USI,-41.0863749002113,172.73264020417858
747,COC0011,147 TORY STREET WELLINGTON,23.0,Wellington (Wellington Electricity),LNI,-41.2972212,174.7791878
751,COM0011,133 TORY STREET WELLINGTON,23.0,Wellington (Wellington Electricity),LNI,-41.2971184,174.780265
752,COM0012,133 TORY ST WELLINGTON,23.0,Wellington (Wellington Electricity),LNI,-41.2971184,174.780265
766,CST0111,CARRINGTON ST,19.0,Taranaki (Powerco),LNI,-39.08120928157704,174.08718826303948
792,CWL0111,CHARTWELL SQUARE,7.0,Waikato (WEL Networks),CNI,-37.75040468611828,175.27904819432229
796,DAR0111,DARGAVILLE,2.0,Whangarei and Kaipara (Northpower),UNI,-35.932881909175855,173.8789309145527
817,EDA0011,Crombie Lockwood Building,23.0,Wellington (Wellington Electricity),LNI,-41.30056901012124,174.7694804061401
828,ELD0111,ELDONWOOD,6.0,Thames Valley (Powerco),CNI,-37.82169369980536,175.76254804216472
847,EQV0011,QV House,23.0,Wellington (Wellington Electricity),LNI,-41.25862622782804,174.75982495281033
856,ETA0011,ESDP WILD LIFE HOUSE,23.0,Wellington (Wellington Electricity),LNI,-41.29418225120247,174.78061767704935
873,FND0111,Founders,24.0,Nelson (Nelson Electricity),USI,-41.26172337829594,173.296903270556
880,GID0221,GOODE,4.0,Auckland (Vector),UNI,-36.95471075865364,174.862529983245
881,GIS0111,GISBORNE,14.0,Eastland (Eastland Network),CNI,-38.64408925929834,178.02632859255652
882,GIS0501,GISBORNE,14.0,Eastland (Eastland Network),CNI,-38.64408925929834,178.02632859255652
946,HPD0331,HUNTINGTON PARK,4.0,Auckland (Vector),UNI,-36.73897428133801,174.69069125022793
983,HWB0332,HALFWAY BUSH,37.0,Dunedin (Aurora Energy),LSI,-45.85487428861571,170.47569957860324
993,HWB1101,HALF WAY BUSH,36.0,Otago (OtagoNet JV),LSI,-45.85487428861571,170.47569957860324
1019,KCH0013,KIWI CENTREPLACE RANK ZEROX,7.0,Waikato (WEL Networks),CNI,-37.779240324645116,175.3045710445159
1023,KDA0011,KIWI DOWNTOWN ANNEX,7.0,Waikato (WEL Networks),CNI,-37.779240324645116,175.3045710445159
1032,KEN0331,KENSINGTON,2.0,Whangarei and Kaipara (Northpower),UNI,-35.70282137334331,174.3112060871635
1053,KKA0331,KAIKOURA,29.0,North Canterbury (MainPower NZ),USI,-42.40014752323958,173.6683118076174
1100,KOE0331,KAIKOHE,1.0,Bay of Islands (Top Energy),UNI,-35.396161924572525,173.81063157178892
1102,KOW0011,KIWI TERONE,23.0,Wellington (Wellington Electricity),LNI,-41.25905179795385,174.79063253149448
1106,KPC0011,KIWI PRICE WATERHOUSE BLG,30.0,Central Canterbury (Orion New Zealand),USI,-43.53894207990116,172.60241302163072
1119,KSA0011,KIWI STATE INSURANCE,4.0,Auckland (Vector),UNI,-36.85333115643144,174.76743468055665
1120,KTA0331,KAITAIA,1.0,Bay of Islands (Top Energy),UNI,-35.12115909514737,173.33623757162025
1133,LAK0111,36 Lake Street Cambridge,8.0,Waipa (Waipa Networks),CNI,-37.8903751,175.4686127
1141,LYN0111,LYNLEY PARK,10.0,Tauranga (Powerco),CNI,-37.652360986503965,176.02934617463515
1148,MAT1102,MATAHINA,12.0,Eastern Bay of Plenty (Horizon Energy),CNI,-38.11342928926802,176.8146170667938
1151,MDN0141,MARSDEN,2.0,Whangarei and Kaipara (Northpower),UNI,-35.87586685248084,174.4669480630179
1153,MDN0142,MARSDEN C,2.0,Whangarei and Kaipara (Northpower),UNI,-35.87586685248084,174.4669480630179
1155,MDN1101,MARSDEN,2.0,Whangarei and Kaipara (Northpower),UNI,-35.87586685248084,174.4669480630179
1156,MER0331,MEREMERE,7.0,Waikato (WEL Networks),CNI,-37.314851632986716,175.06848868308498
1166,MHI0111,Matingarahi Road,5.0,Counties (Counties Power),UNI,-37.1886804624359,175.0000871264094
1181,MLN0661,MIDDLETON,30.0,Central Canterbury (Orion New Zealand),USI,-43.54087780518914,172.5676310942378
1184,MLN0664,MIDDLETON,30.0,Central Canterbury (Orion New Zealand),USI,-43.54087780518914,172.5676310942378
1194,MOT0111,MOTUEKA,25.0,Tasman (Network Tasman),USI,-41.137705048462344,172.9802326447823
1196,MPE0331,MAUNGATAPERE,2.0,Whangarei and Kaipara (Northpower),UNI,-35.76637055542402,174.20718169282762
1199,MPI0331,MOTUPIPI,25.0,Tasman (Network Tasman),USI,-40.860380273019764,172.84297349638837
1200,MPI0661,MOTUPIPI,25.0,Tasman (Network Tasman),USI,-40.860380273019764,172.84297349638837
1202,MRA0111,MOTUROA,19.0,Taranaki (Powerco),LNI,-39.064847954724605,174.04049481690276
1204,MRR0111,MAROTIRI,9.0,King Country (The Lines Company),CNI,-38.54893436481801,175.82191685227775
1214,MTI0111,MARAETAI,9.0,King Country (The Lines Company),CNI,-38.352736363346914,175.74426746123945
1217,MTM0111,MT. MAUNGANUI,10.0,Tauranga (Powerco),CNI,-37.67790261246904,176.2140877663061
1243,NCP0011,North City Plaza,23.0,Wellington (Wellington Electricity),LNI,-41.13600094809764,174.84044177516887
1246,NOR0011,21 BUTE RD BROWNS BAY AUCKLAND,3.0,Waitemata (Vector),UNI,-36.7142767,174.7454309
1265,NPL0331,NEW PLYMOUTH,19.0,Taranaki (Powerco),LNI,-39.0583106943782,174.0267493936714
1269,NPL1101,NEW PLYMOUTH,19.0,Taranaki (Powerco),LNI,-39.0583106943782,174.0267493936714
1271,NPL2201,NEW PLYMOUTH,19.0,Taranaki (Powerco),LNI,-39.0583106943782,174.0267493936714
1298,OKI0111,OHAAKI,11.0,Rotorua (Unison Networks),CNI,-38.52804809773698,176.2922322419816
1340,OPS0011,259 MANGERE STATION AUCKLAND,4.0,Auckland (Vector),UNI,-36.9720681,174.7866711
1406,OTA1101,OTAHUHU,4.0,Auckland (Vector),UNI,-36.95471075865364,174.862529983245
1408,OTA1102,OTAHUHU,4.0,Auckland (Vector),UNI,-36.95471075865364,174.862529983245
1410,OTA2202,OTAHUHU,4.0,Auckland (Vector),UNI,-36.95471075865364,174.862529983245
1421,PAL0331,PALMERSTON,36.0,Otago (OtagoNet JV),LSI,-45.48568114198207,170.6870169359801
1427,PAP0111,PAPANUI,30.0,Central Canterbury (Orion New Zealand),USI,-43.492830995183375,172.59211629931033
1429,PAP0661,PAPANUI,30.0,Central Canterbury (Orion New Zealand),USI,-43.492830995183375,172.59211629931033
1431,PAW0111,PARAWERA,13.0,Taupo (Unison Networks),CNI,-38.625688214646786,176.10543953333274
1441,PDH0011,DELOITTE HOUSE,23.0,Wellington (Wellington Electricity),LNI,-41.283549017250884,174.77742685539158
1477,PFT0011,PHILLIPS FOX TOWER,4.0,Auckland (Vector),UNI,-36.8491107611119,174.7651505043271
1478,PHB0011,Harcourts Building,23.0,Wellington (Wellington Electricity),LNI,-41.25905179795385,174.79063253149448
1494,POR0221,Portage Road,4.0,Auckland (Vector),UNI,-37.038963515842475,174.93360745650054
1610,RFT0111,REEFTON,28.0,West Coast (Westpower),USI,-42.08227817445449,171.84581851455087
1612,ROB1101,ROBERTSON STREET,27.0,Buller (Buller Electricity),USI,-41.76483471392322,171.61092231968854
1753,RPE0331,REDOUBT PARK,4.0,Auckland (Vector),UNI,-36.987810182614794,174.88459451653904
1765,SBK0331,SOUTHBROOK,29.0,North Canterbury (MainPower NZ),USI,-43.3273438689438,172.59870176346203
1775,SHT0111,SHOTOVER PARK,34.0,Queenstown (Aurora Energy),LSI,-45.01235937610933,168.75557265610485
1777,SHT0112,SHOTOVER PARK,34.0,Queenstown (Aurora Energy),LSI,-45.01235937610933,168.75557265610485
1779,SHV0011,Selwyn Heights Retirement Villag,4.0,Auckland (Vector),UNI,-36.904340940327536,174.8162317331559
1785,SPN0331,SPRINGSTON,30.0,Central Canterbury (Orion New Zealand),USI,-43.63779682149563,172.44991524442335
1789,SPN0661,SPRINGSTON,30.0,Central Canterbury (Orion New Zealand),USI,-43.63779682149563,172.44991524442335
1791,SPO0011,150-160 BEAUMONT ST,4.0,Auckland (Vector),UNI,-36.8421737274964,174.75396730912504
1800,STR0111,THE STRAND,23.0,Wellington (Wellington Electricity),LNI,-41.24059290855614,174.91666662939713
1805,SVA0011,Patterson Apartments,4.0,Auckland (Vector),UNI,-36.86366849725444,174.7008051362492
1809,SVW0111,Silverwood,23.0,Wellington (Wellington Electricity),LNI,-41.157324831188554,174.8715243691853
1815,SYL0111,SYLVIA PARK,4.0,Auckland (Vector),UNI,-36.904340940327536,174.8162317331559
1816,SYL0112,SYLVIA PARK,4.0,Auckland (Vector),UNI,-36.904340940327536,174.8162317331559
1866,TKH0111,TE KAHA,12.0,Eastern Bay of Plenty (Horizon Energy),CNI,-37.74281586535744,177.68560122364732
1893,TMU1101,TE AWAMUTU,8.0,Waipa (Waipa Networks),CNI,-38.00214245871714,175.32016545834458
1918,TOB0501,TOKOMARU BAY,14.0,Eastland (Eastland Network),CNI,-38.12331030432197,178.31113320772522
1919,TOM0111,BAYFAIR MALL,10.0,Tauranga (Powerco),CNI,-37.6746833180851,176.22375386876948
1921,TOT0011,131 QUEEN STREET,4.0,Auckland (Vector),UNI,-36.846777425165655,174.76568002915295
1956,TUI0111,TUAI,14.0,Eastland (Eastland Network),CNI,-38.80535421667333,177.15139892120368
1970,TWL0011,84 WILLIS ST WELLINGTON,23.0,Wellington (Wellington Electricity),LNI,-41.2882909,174.7750736
1981,VST0221,VESTY DRIVE,4.0,Auckland (Vector),UNI,-36.92816854166623,174.83463644457544
1997,WDT0011,WESTFIELD DOWNTOWN,4.0,Auckland (Vector),UNI,-36.904340940327536,174.8162317331559
2004,WES0331,WESTERN ROAD,7.0,Waikato (WEL Networks),CNI,-37.56641110023549,175.147602467123
2009,WGA0111,WIGRAM,30.0,Central Canterbury (Orion New Zealand),USI,-43.53647515698681,172.5118180535355
2025,WHT0011,25 VIVIAN STREET WELLINGTON,23.0,Wellington (Wellington Electricity),LNI,-36.93593527399518,174.99250597188626
2037,WMA0331,WAIMAHIA,4.0,Auckland (Vector),UNI,-37.043492805882096,174.86921742034937
2038,WMG0331,WAIMANGAROA,27.0,Buller (Buller Electricity),USI,-41.71810791180811,171.75722034864336
2045,WPR0011,Waipunahau Waikanae,22.0,Kapiti and Horowhenua (Electra),LNI,-43.051899166748925,172.75608957521965
2068,WPT0111,WESTPORT,27.0,Buller (Buller Electricity),USI,-41.75205121640907,171.50867383817015
2079,WRA0111,WAIROA,14.0,Eastland (Eastland Network),CNI,-38.996822868048426,177.4063322328559
2082,WRA0501,WAIROA,14.0,Eastland (Eastland Network),CNI,-38.996822868048426,177.4063322328559
2116,WTN0111,WINTON,38.0,Southland (The Power Company),LSI,-46.143400867547236,168.3040212797559
2117,WTN0661,WINTON,38.0,Southland (The Power Company),LSI,-46.143400867547236,168.3040212797559
2129,WWK0111,WHAREWAKA,13.0,Taupo (Unison Networks),CNI,-38.625688214646786,176.10543953333274
